,City,Country,Max Temperature (F),Humidity (%),Cloudiness (%),Wind Speed (mph),Latitude,Longitude,Date
0,Longyearbyen,NO,35.6,69,75,17.22,78.22,15.63,1559264062
1,Saint George,GR,64.4,59,40,4.94,39.45,22.34,1559264063
2,Cabo San Lucas,MX,84.99,60,5,16.11,22.89,-109.91,1559264007
3,Cidreira,BR,62.72,76,100,19.98,-30.17,-50.22,1559264063
4,Souillac,FR,57.99,87,0,1.12,45.6,-0.6,1559264064
5,Sarakhs,TM,75.14,39,40,11.39,36.54,61.16,1559264064
6,Ostrovnoy,RU,46.34,56,1,14.43,68.05,39.51,1559264064
7,Gizo,IL,75.99,88,0,5.82,31.8,34.94,1559264065
8,Tessalit,ML,92.06,7,0,9.48,20.2,1.01,1559264065
9,Axim,GH,78.56,84,100,8.21,4.87,-2.24,1559264065
10,Dikson,RU,31.76,91,69,22.35,73.51,80.55,1559263858
11,Salaga,GH,80.72,77,83,8.63,8.55,-0.52,1559264066
12,Santiago del Estero,AR,56.78,84,0,0.56,-27.8,-64.26,1559263830
13,New Norfolk,AU,55.0,66,75,13.87,-42.78,147.06,1559264066
14,Torbay,CA,37.0,100,90,5.82,47.66,-52.73,1559263967
15,Thompson,CA,42.8,60,90,6.93,55.74,-97.86,1559263750
16,Huangmei,CN,70.1,72,2,2.28,30.1,115.95,1559264067
17,Maceio,BR,75.2,88,75,3.36,-9.67,-35.74,1559263964
18,Nanortalik,GL,38.42,70,0,2.93,60.14,-45.24,1559264067
19,Laguna,MX,91.4,27,5,13.87,27.52,-110.01,1559264067
20,Komsomolskiy,RU,21.86,95,13,5.14,67.55,63.78,1559264068
21,Ribeira Grande,PT,65.96,93,74,8.86,38.52,-28.7,1559263869
22,Santa Marta,CO,84.2,74,40,6.93,11.24,-74.21,1559263896
23,Carnarvon,ZA,57.32,30,55,7.43,-30.97,22.13,1559264069
24,Sagamihara,JP,77.0,60,75,8.05,35.57,139.24,1559264069
25,Mataura,NZ,48.0,91,75,3.94,-46.19,168.86,1559264069
26,Castro,CL,50.0,100,90,17.22,-42.48,-73.76,1559263852
27,Atuona,PF,83.42,75,12,17.11,-9.8,-139.03,1559263853
28,Senneterre,CA,46.4,65,40,10.29,48.39,-77.24,1559264070
29,Lompoc,US,73.0,77,75,12.75,34.64,-120.46,1559263785
30,Coquimbo,CL,59.0,87,0,4.7,-29.95,-71.34,1559264070
31,Altamont,CA,89.6,19,1,18.34,49.4,-98.5,1559264071
32,Norman Wells,CA,51.8,62,75,2.24,65.28,-126.83,1559264071
33,Punta Arenas,CL,26.6,100,40,3.36,-53.16,-70.91,1559263846
34,Hilo,US,80.6,65,90,8.05,19.71,-155.08,1559264072
35,San Policarpo,PH,85.76,71,84,7.27,12.18,125.51,1559264072
36,Tuatapere,NZ,48.0,91,82,12.48,-46.13,167.69,1559264072
37,Yellowknife,CA,44.6,56,40,8.05,62.45,-114.38,1559263866
38,Saint-Louis,CH,55.99,81,0,2.24,47.59,7.56,1559264073
39,Ruwi,OM,89.6,24,0,4.09,23.6,58.55,1559264073
40,Leningradskiy,RU,32.48,98,76,4.74,69.38,178.42,1559263856
41,Natal,BR,77.0,88,75,4.7,-5.81,-35.21,1559264074
42,Rikitea,PF,77.48,83,25,15.75,-23.12,-134.97,1559263786
43,Bluff,AU,61.28,28,83,18.32,-23.58,149.07,1559263865
44,Hithadhoo,MV,82.88,77,100,19.55,-0.6,73.08,1559264074
45,Vaini,IN,75.2,88,20,5.82,15.34,74.49,1559263850
46,Cape Town,ZA,57.99,100,1,1.12,-33.93,18.42,1559264075
47,Jamestown,AU,50.12,82,1,4.03,-33.21,138.6,1559263843
48,Tiksi,RU,32.84,95,82,6.38,71.64,128.87,1559263857
49,Mount Gambier,AU,53.6,93,90,12.75,-37.83,140.78,1559263863
50,Narsaq,GL,53.6,20,0,16.11,60.91,-46.05,1559264076
51,San Quintin,PH,87.38,58,57,0.76,17.54,120.52,1559264076
52,Bredasdorp,ZA,50.0,93,67,3.36,-34.53,20.04,1559263878
53,Concarneau,FR,57.0,100,0,2.24,47.88,-3.92,1559264076
54,Kungalv,SE,53.01,93,90,8.05,57.87,11.98,1559264077
55,Yerofey Pavlovich,RU,57.32,34,36,9.06,53.97,121.97,1559264077
56,Hami,CN,70.1,18,0,7.96,42.84,93.51,1559264077
57,Pervomayskoye,RU,43.46,79,91,10.45,57.07,86.23,1559264078
58,Arraial do Cabo,BR,76.22,80,63,16.84,-22.97,-42.02,1559263867
59,Kupang,ID,81.26,75,59,20.83,-10.16,123.6,1559264078
60,Fez,MA,69.8,52,0,14.99,34.03,-5.02,1559264079
61,Saskylakh,RU,33.38,97,98,14.36,71.97,114.09,1559264079
62,Avarua,CK,77.0,78,90,16.11,-21.21,-159.78,1559263587
63,Busselton,AU,64.99,37,30,13.82,-33.64,115.35,1559264079
64,Sergeyevka,KZ,58.4,63,0,8.43,53.88,67.42,1559264080
65,Lavrentiya,RU,42.56,67,93,9.8,65.58,-170.99,1559264081
66,Kavieng,PG,84.5,76,53,11.48,-2.57,150.8,1559264081
67,Port Macquarie,AU,63.0,35,0,10.29,-31.43,152.91,1559263875
68,Khandbari,NP,50.66,70,2,3.24,27.38,87.21,1559264081
69,Carmarthen,GB,62.01,93,99,18.34,51.86,-4.31,1559264082
70,Albany,US,66.99,82,90,8.05,42.65,-73.75,1559263845
71,Ryotsu,JP,73.4,56,100,5.82,38.08,138.43,1559264082
72,Ushuaia,AR,37.4,69,0,5.82,-54.81,-68.31,1559263857
73,Tunceli,TR,59.0,67,0,3.36,39.11,39.55,1559264082
74,Coihaique,CL,37.4,93,90,3.36,-45.58,-72.07,1559264083
75,Lundazi,ZM,58.76,81,9,9.17,-12.29,33.17,1559264083
76,Turukhansk,RU,36.98,77,88,6.26,65.8,87.96,1559264083
77,Qaanaaq,GL,27.8,74,0,4.14,77.48,-69.36,1559263876
78,Normandin,CA,48.2,87,75,8.05,48.84,-72.53,1559264083
79,Kesova Gora,RU,48.32,91,2,3.15,57.58,37.3,1559264084
80,East London,ZA,61.82,41,100,3.0,-33.02,27.91,1559263854
81,Hobart,AU,55.0,66,75,13.87,-42.88,147.33,1559263754
82,Mahebourg,MU,66.99,88,40,9.17,-20.41,57.7,1559263855
83,Hasaki,JP,77.0,64,75,13.87,35.73,140.83,1559264084
84,Kolyvan,RU,48.2,87,0,8.95,55.31,82.74,1559264085
85,Makakilo City,US,87.8,58,75,11.41,21.35,-158.09,1559263896
86,Port Alfred,ZA,56.24,78,97,2.44,-33.59,26.89,1559263853
87,Sicuani,PE,42.38,39,44,3.02,-14.27,-71.23,1559264085
88,Presidencia Roque Saenz Pena,AR,61.28,96,39,5.73,-26.79,-60.44,1559264008
89,Saint-Philippe,CA,70.0,52,90,10.29,45.36,-73.48,1559263862
90,Pihani,IN,89.0,45,0,12.46,27.62,80.2,1559264086
91,Sept-Iles,CA,43.0,93,90,19.46,50.2,-66.38,1559264056
92,Guerrero Negro,MX,63.98,84,5,15.19,27.97,-114.04,1559264086
93,Petropavlovka,RU,56.6,39,11,4.21,50.61,105.32,1559264087
94,Troyes,FR,53.6,93,0,3.36,48.3,4.07,1559264087
95,Berlevag,NO,42.74,72,87,15.14,70.86,29.09,1559264088
96,Butaritari,KI,83.42,80,100,16.6,3.07,172.79,1559263870
97,Margate,AU,55.0,66,75,13.87,-43.03,147.26,1559264088
98,Vestmannaeyjar,IS,46.16,63,0,9.4,63.44,-20.27,1559264088
99,Vikindu,TZ,73.4,94,20,4.7,-6.98,39.3,1559264089
100,Bandarbeyla,SO,75.32,83,100,11.88,9.49,50.81,1559263867
101,Barra Patuca,HN,84.68,79,100,13.73,15.8,-84.28,1559264089
102,Correntina,BR,72.8,68,40,4.21,-13.34,-44.63,1559264089
103,Bodden Town,KY,81.0,83,75,6.93,19.28,-81.25,1559264090
104,Hwange,ZW,56.78,37,0,4.21,-18.35,26.5,1559264090
105,Kamina,CD,65.78,62,35,4.47,-8.74,25.0,1559264090
106,Mount Isa,AU,59.0,33,0,17.22,-20.73,139.49,1559264090
107,Puerto Ayora,EC,78.8,65,20,14.99,-0.74,-90.35,1559264091
108,Iqaluit,CA,39.2,86,20,3.36,63.75,-68.52,1559264091
109,Yerbogachen,RU,49.76,38,100,10.78,61.28,108.01,1559264091
110,Zhangjiakou,CN,52.46,24,0,10.92,40.77,114.88,1559264092
111,Vao,EE,51.2,49,97,12.71,59.1,26.19,1559264092
112,Tuktoyaktuk,CA,42.8,60,40,14.99,69.44,-133.03,1559264092
113,Gwadar,PK,88.28,69,0,14.2,25.12,62.33,1559264093
114,Tual,ID,81.8,81,49,18.97,-5.67,132.75,1559264093
115,Benguela,AO,73.16,82,0,10.54,-12.58,13.4,1559264093
116,Ahipara,NZ,57.99,100,100,28.25,-35.17,173.16,1559263865
117,Manali,IN,21.5,61,35,8.55,32.25,77.19,1559264094
118,Omsukchan,RU,62.72,34,100,7.23,62.53,155.8,1559264094
119,Tasiilaq,GL,32.0,80,13,11.41,65.61,-37.64,1559264094
120,Sao Filipe,CV,74.42,87,1,16.06,14.9,-24.5,1559264095
121,Mareeba,AU,77.0,78,75,11.41,-16.99,145.42,1559264095
122,Clyde River,CA,35.6,80,1,2.24,70.47,-68.59,1559263879
123,Ancud,CL,50.0,100,90,17.22,-41.87,-73.83,1559264095
124,Yazman,SY,82.34,21,69,4.36,36.74,38.46,1559264095
125,Hermanus,ZA,55.99,90,36,1.99,-34.42,19.24,1559263849
126,Nikolskoye,RU,44.01,70,0,4.47,59.7,30.79,1559264096
127,Faanui,PF,81.26,67,88,4.36,-16.48,-151.75,1559263846
128,Pangnirtung,CA,46.34,57,3,4.23,66.15,-65.72,1559264097
129,Northam,GB,60.01,93,75,6.93,51.04,-4.21,1559264097
130,Port-Cartier,CA,43.0,93,90,19.46,50.03,-66.88,1559264097
131,Flin Flon,CA,52.28,39,76,8.21,54.77,-101.88,1559264098
132,Fortuna,ES,64.0,77,0,5.82,38.18,-1.13,1559264098
133,Namatanai,PG,81.8,80,84,7.78,-3.66,152.44,1559263848
134,Khandyga,RU,58.58,59,97,8.28,62.65,135.58,1559264098
135,Barrow,AR,45.44,69,100,4.74,-38.31,-60.23,1559264099
136,Chuy,UY,58.4,76,100,13.82,-33.69,-53.46,1559264099
137,Minnehaha,US,80.01,47,1,8.43,45.66,-122.62,1559264099
138,Bathsheba,BB,80.6,78,75,16.11,13.22,-59.52,1559264100
139,Solnechnyy,RU,44.36,93,100,2.04,50.72,136.64,1559264100
140,Saldanha,PT,65.6,48,0,5.77,41.42,-6.55,1559263883
141,New Castle,US,69.01,88,75,11.41,41.0,-80.35,1559264101
142,Bethel,US,62.6,39,75,11.41,60.79,-161.76,1559263851
143,Gorgota,RO,63.0,93,0,6.44,44.98,25.51,1559264101
144,Haines Junction,CA,61.1,32,53,10.13,60.75,-137.51,1559264102
145,Port Lincoln,AU,56.78,73,99,6.08,-34.72,135.86,1559264102
146,Havelock,US,84.99,74,1,18.34,34.88,-76.9,1559263807
147,Katherine,AU,69.8,32,0,19.46,-14.47,132.26,1559264102
148,Rome,IT,59.0,93,20,2.24,41.89,12.48,1559264049
149,Kaitangata,NZ,51.01,69,90,4.0,-46.28,169.85,1559264103
150,Kodiak,US,75.2,37,40,5.82,39.95,-94.76,1559264103
151,Russell,AR,50.0,76,90,3.36,-33.01,-68.8,1559264104
152,Grants,US,66.2,35,1,13.87,35.15,-107.85,1559264104
153,Juneau,US,69.8,37,90,8.05,58.3,-134.42,1559264105
154,Najran,SA,78.8,34,0,2.66,17.54,44.22,1559264105
155,Maragogi,BR,73.7,91,4,2.46,-9.01,-35.22,1559264106
156,Hammerfest,NO,41.0,75,75,18.34,70.66,23.68,1559264106
157,Atambua,ID,82.34,72,66,16.84,-9.11,124.89,1559264106
158,Poum,MK,45.8,86,1,2.24,41.28,20.71,1559264106
159,Darhan,MN,58.04,42,2,4.0,49.49,105.92,1559264107
160,Fuerte Olimpo,BR,83.78,53,50,4.32,-21.04,-57.87,1559263809
161,Hirtshals,DK,50.0,91,91,4.0,57.59,9.96,1559264107
162,Semirom,IR,52.28,46,0,0.74,31.41,51.57,1559264107
163,Miyako,JP,70.0,68,75,9.17,33.63,130.94,1559264108
164,Puerto Leguizamo,CO,78.92,73,100,2.26,-0.19,-74.78,1559264108
165,Naze,NG,73.34,97,100,3.76,5.43,7.07,1559264108
166,Yamada,JP,75.2,49,75,9.17,36.58,137.08,1559264108
167,Suntar,RU,59.12,33,0,5.57,62.16,117.65,1559264109
168,Mar del Plata,AR,39.68,69,94,6.4,-46.43,-67.52,1559263872
169,Beatrice,US,75.99,60,1,4.7,40.27,-96.75,1559264109
170,Valdivia,CL,53.6,93,90,9.17,-39.81,-73.25,1559263810
171,Maralal,KE,62.18,84,26,5.68,1.1,36.7,1559264110
172,Alofi,NU,80.6,74,40,9.17,-19.06,-169.92,1559263582
173,Richards Bay,ZA,66.5,72,0,5.73,-28.77,32.06,1559264110
174,Brae,GB,44.6,75,15,10.29,60.4,-1.35,1559264110
175,Bavly,RU,62.54,92,0,7.2,54.4,53.24,1559264111
176,Teahupoo,PF,84.2,70,75,11.41,-17.83,-149.27,1559264111
177,Santa Barbara,US,73.99,56,1,12.75,34.42,-119.7,1559263969
178,Kapaa,US,84.2,74,40,13.87,22.08,-159.32,1559264112
179,Sao Joao da Barra,BR,69.92,98,0,3.76,-21.64,-41.05,1559263598
180,Lasa,CY,75.2,83,90,9.17,34.92,32.53,1559264112
181,Copiapo,CL,59.0,72,0,6.93,-27.37,-70.33,1559264112
182,Mananjary,MG,58.76,96,42,1.7,-19.16,46.8,1559263844
183,Nakusp,CA,57.99,99,93,4.18,50.24,-117.8,1559264113
184,Porto Novo,BR,68.0,88,40,12.15,-23.68,-45.44,1559264113
185,Upernavik,GL,32.84,85,15,5.1,72.79,-56.15,1559263875
186,Sinnamary,GF,81.62,81,98,15.21,5.38,-52.96,1559264114
187,Salinas,US,70.0,67,1,21.92,36.67,-121.66,1559264114
188,Yulara,AU,50.0,46,0,18.34,-25.24,130.99,1559263848
189,Caravelas,BR,75.32,85,1,3.27,-17.73,-39.27,1559264114
190,Lagoa,PT,70.0,46,0,11.41,37.14,-8.45,1559264115
191,Ibadan,NG,77.84,82,100,4.0,7.38,3.9,1559264115
192,Beringovskiy,RU,47.96,55,0,6.67,63.05,179.32,1559263862
193,General Roca,AR,44.6,93,40,3.36,-39.03,-67.58,1559264116
194,Hailar,CN,52.64,65,97,11.45,49.2,119.7,1559264116
195,Ara,SY,71.6,49,0,5.82,35.71,36.15,1559264117
196,Carauari,BR,82.34,68,94,0.65,-4.88,-66.9,1559264117
197,Kulhudhuffushi,MV,83.78,79,100,9.4,6.62,73.07,1559264117
198,Victoria,BN,84.2,83,75,1.12,5.28,115.24,1559263860
199,Lorengau,PG,83.6,78,59,7.61,-2.02,147.27,1559264118
200,Severo-Kurilsk,RU,39.14,92,100,38.74,50.68,156.12,1559264118
201,Nome,US,84.0,74,1,3.36,30.04,-94.42,1559264119
202,Sorland,NO,43.82,75,0,6.29,67.67,12.69,1559264119
203,Ati,TD,82.34,65,100,10.47,13.21,18.34,1559264119
204,Kahului,US,84.2,61,90,16.11,20.89,-156.47,1559264120
205,Numan,NG,82.88,63,84,3.67,9.46,12.04,1559264120
206,Luderitz,NA,53.6,100,9,8.05,-26.65,15.16,1559264121
207,Maple Creek,CA,81.44,26,7,15.28,49.91,-109.46,1559264121
208,Shaowu,CN,67.58,98,100,2.98,27.34,117.49,1559264121
209,Constitucion,MX,86.0,8,5,2.24,23.99,-104.67,1559264122
210,Mariental,DE,60.01,89,69,3.0,52.28,10.99,1559264122
211,Alakurtti,RU,44.01,75,29,4.0,66.96,30.34,1559264122
212,Upata,VE,78.38,70,100,5.26,8.02,-62.41,1559264123
213,Zhanaozen,KZ,74.6,46,55,13.4,43.35,52.85,1559264123
214,Dali,CN,62.18,69,1,2.13,25.6,100.24,1559263846
215,Zhigansk,RU,45.44,56,0,16.49,66.77,123.37,1559264123
216,Isangel,VU,80.6,69,20,11.41,-19.55,169.27,1559264123
217,Dakar,SN,71.6,83,0,20.8,14.69,-17.45,1559264124
218,Siocon,PH,85.58,71,59,5.3,11.03,124.04,1559264124
219,Staryy Nadym,RU,34.28,95,100,14.9,65.61,72.68,1559264124
220,Betare Oya,CM,68.12,93,100,0.76,5.6,14.08,1559264125
221,Poso,ID,66.5,91,86,4.12,-1.4,120.75,1559264125
222,Along,IN,57.5,73,55,4.29,28.17,94.8,1559264125
223,Ponta do Sol,BR,67.4,90,79,4.16,-20.63,-46.0,1559264126
224,Port Elizabeth,US,72.0,100,1,4.7,39.31,-74.98,1559263853
225,Yumen,CN,65.24,19,0,6.82,40.29,97.04,1559264126
226,Airai,TL,80.0,65,65,8.08,-8.93,125.41,1559263879
227,Cherskiy,RU,60.92,32,18,6.11,68.75,161.3,1559264127
228,Ilulissat,GL,44.6,56,0,4.7,69.22,-51.1,1559264127
229,Jacareacanga,BR,78.2,76,47,1.68,-6.22,-57.76,1559264127
230,San Andres,PH,85.94,69,62,3.13,13.32,122.68,1559264128
231,Rawson,AR,44.6,70,75,11.41,-43.3,-65.11,1559264128
232,Dutlwe,BW,56.24,31,0,8.34,-23.98,23.93,1559264128
233,Husavik,CA,81.0,24,4,3.0,50.56,-96.99,1559264129
234,Jackson,US,80.01,73,20,6.26,35.61,-88.82,1559264100
235,Pevek,RU,34.82,84,0,7.83,69.7,170.27,1559264129
236,Mwanza,TZ,69.8,83,20,6.67,-2.52,32.9,1559263878
237,Nicoya,CR,80.6,83,75,8.05,10.15,-85.45,1559264130
238,Pisco,PE,66.2,82,90,8.05,-13.71,-76.2,1559264130
239,Parbhani,IN,94.22,24,58,7.16,19.26,76.77,1559264131
240,Areka,ET,66.14,77,78,0.22,7.07,37.71,1559264131
241,Talnakh,RU,32.0,89,75,15.66,69.49,88.39,1559263877
242,Krasnoyarskiy,RU,63.26,55,1,1.77,51.97,59.9,1559264131
243,Trelew,AR,44.6,70,75,11.41,-43.25,-65.31,1559264132
244,Karpathos,GR,68.0,88,93,21.92,35.51,27.21,1559264132
245,Antofagasta,CL,59.0,82,75,10.29,-23.65,-70.4,1559264132
246,Aleppo,SY,79.1,31,93,5.12,36.2,37.17,1559263947
247,Bam,IR,67.76,38,24,1.32,29.11,58.36,1559263989
248,Pyapon,MM,82.52,83,100,4.79,16.29,95.68,1559264133
249,Khatanga,RU,44.0,84,100,15.43,71.98,102.47,1559264133
250,Nabire,ID,74.6,93,100,2.21,-3.36,135.5,1559264133
251,Kavaratti,IN,85.76,69,87,7.16,10.57,72.64,1559263882
252,Capinopolis,BR,74.42,59,6,2.44,-18.68,-49.57,1559264081
253,Merauke,ID,81.98,80,86,21.05,-8.49,140.4,1559264134
254,Cananea,MX,82.4,8,1,5.82,30.98,-110.3,1559264135
255,Healdsburg,US,75.99,77,1,9.17,38.61,-122.87,1559264135
256,Kerva,RU,53.18,95,22,4.88,55.61,39.58,1559264135
257,Baoro,CF,67.94,97,100,3.22,5.69,15.95,1559264136
258,Lomovka,RU,57.2,71,63,2.24,53.92,58.37,1559264136
259,Oussouye,SN,75.2,83,0,4.7,12.49,-16.54,1559264136
260,Nhulunbuy,AU,78.8,69,75,14.99,-12.18,136.78,1559264136
261,Manaure,CO,82.52,82,100,14.0,11.78,-72.45,1559264137
262,Sabha,LY,89.18,24,1,19.64,27.03,14.43,1559264137
263,Tazovskiy,RU,33.38,97,100,12.17,67.47,78.7,1559263872
264,Mae Hong Son,MM,77.0,94,75,2.33,19.3,97.96,1559264138
265,Goya,AR,58.94,96,71,7.11,-29.14,-59.27,1559264138
266,Limon,US,68.0,26,1,7.11,39.26,-103.69,1559264139
267,Hofn,IS,27.98,82,24,3.0,64.25,-15.21,1559264139
268,Santiago,CL,63.0,87,75,4.7,-33.44,-70.65,1559264114
269,Thinadhoo,MV,81.98,82,100,17.81,0.53,72.93,1559264140
270,Kruisfontein,ZA,58.58,78,100,2.17,-34.0,24.73,1559264140
271,Portland,US,80.01,44,75,4.7,45.52,-122.67,1559263896
272,Marsabit,KE,81.08,58,32,19.98,2.34,37.99,1559264141
273,Camargo,MX,92.24,5,0,5.21,27.69,-105.17,1559264141
274,Olovo,BA,51.8,87,75,2.24,44.13,18.58,1559264141
275,Strezhevoy,RU,33.8,86,0,6.71,60.73,77.6,1559264141
276,Nara,JP,73.99,46,75,3.36,34.68,135.8,1559263898
277,Olga,US,82.4,64,1,5.82,34.11,-118.17,1559264118
278,Filadelfia,PY,68.3,92,28,9.28,-22.35,-60.04,1559264142
279,Uvinza,TZ,66.5,92,0,2.53,-5.1,30.39,1559264142
280,Santa Clara,CU,80.6,74,75,11.41,22.41,-79.97,1559264050
281,Victoria,BN,84.2,83,75,1.12,5.28,115.24,1559264144
282,Bocana de Paiwas,NI,77.12,77,98,4.36,12.79,-85.12,1559264144
283,Pavlovskiy,RU,59.0,100,2,2.24,45.07,37.77,1559264144
284,Nahrin,AF,65.24,39,83,6.29,36.06,69.13,1559264145
285,Kuntaur,GM,86.48,41,21,14.03,13.67,-14.89,1559264145
286,Codrington,AU,60.01,41,0,5.82,-28.95,153.24,1559264146
287,Pangai,TO,80.6,69,20,8.05,-19.8,-174.35,1559264146
288,Panambi,BR,60.92,98,100,3.51,-28.29,-53.5,1559264146
289,Doha,QA,91.4,36,0,4.7,25.29,51.53,1559263904
290,Georgetown,GY,80.6,83,40,9.17,6.8,-58.16,1559264147
291,Dinard,FR,57.99,93,90,2.86,48.63,-2.06,1559264147
292,Exu,BR,80.6,61,20,2.24,-7.52,-39.72,1559264147
293,Crixas,BR,78.38,53,67,1.79,-14.55,-49.97,1559264148
294,Nemuro,JP,66.2,59,0,8.05,43.32,145.57,1559264148
295,Minab,IR,82.4,69,0,6.93,27.15,57.07,1559264148
296,Vyartsilya,RU,44.36,56,55,9.73,62.18,30.69,1559264148
297,Sorong,ID,82.52,81,70,2.48,-0.86,131.25,1559264149
298,Terrace,CA,80.6,36,75,9.17,54.52,-128.61,1559264149
299,Aklavik,CA,53.6,37,20,5.82,68.22,-135.01,1559264150
300,Vardo,US,73.99,83,75,9.17,39.62,-77.74,1559264150
301,Abalak,NE,93.86,33,39,12.84,15.46,6.28,1559264150
302,Buala,SB,82.88,76,99,14.05,-8.15,159.59,1559264150
303,Shenjiamen,CN,66.5,83,84,10.4,29.96,122.3,1559264151
304,La Ronge,CA,53.6,66,75,11.41,55.1,-105.3,1559264151
305,Nokaneng,BW,56.78,35,0,4.99,-19.66,22.19,1559264151
306,Qasigiannguit,GL,44.6,56,0,4.7,68.82,-51.19,1559264151
307,Hovd,NO,44.01,86,90,10.29,63.83,10.7,1559264152
308,Nyrob,RU,58.58,98,87,4.14,60.74,56.73,1559264152
309,San Patricio,PY,63.08,97,100,2.51,-26.98,-56.83,1559264152
310,Auki,NG,83.6,59,100,10.85,12.18,6.51,1559264153
311,Ta Khmau,KH,82.4,83,40,2.24,11.48,104.95,1559264153
312,Benjamin Aceval,PY,68.0,94,90,10.29,-24.97,-57.57,1559264154
313,Turkan,AF,57.32,50,63,3.33,35.6,68.92,1559264154
314,Mayo,CA,68.0,37,75,9.17,63.59,-135.9,1559264154
315,Klaksvik,FO,39.2,80,82,4.7,62.23,-6.59,1559264154
316,Lata,IN,32.48,43,0,11.54,30.78,78.62,1559264155
317,Oeiras,BR,76.76,76,52,3.24,-7.01,-42.13,1559264155
318,Pamekasan,ID,80.18,71,100,7.9,-7.16,113.47,1559264155
319,Arvi,IN,98.72,18,94,0.47,21.0,78.23,1559264156
320,Codajas,BR,75.14,96,99,1.74,-3.84,-62.06,1559264156
321,Kaeo,NZ,57.99,100,85,14.36,-35.1,173.78,1559264156
322,Bambous Virieux,MU,66.99,88,40,9.17,-20.34,57.76,1559263857
323,Baghdad,IQ,77.0,31,0,4.7,33.3,44.38,1559264157
324,Tabriz,IR,59.0,54,20,6.93,38.08,46.29,1559264157
325,Masterton,NZ,59.45,65,93,10.76,-40.95,175.66,1559263892
326,Banda Aceh,ID,83.96,74,100,6.35,5.56,95.32,1559264158
327,Sijunjung,ID,68.3,92,91,2.57,-0.69,100.95,1559264158
328,Mwense,ZM,60.92,69,33,4.97,-10.39,28.7,1559264159
329,Kapit,MY,79.28,81,100,1.05,2.02,112.94,1559264159
330,Opuwo,NA,60.02,55,0,1.81,-18.06,13.84,1559264159
331,Mattru,SL,76.22,95,100,2.86,7.62,-11.83,1559264159
332,Yueyang,CN,71.36,71,0,1.77,29.36,113.12,1559264160
333,Vostok,RU,58.76,52,99,12.75,46.45,135.83,1559264160
334,Esperance,TT,81.0,74,100,6.93,10.24,-61.45,1559263852
335,Lebu,ET,60.8,77,75,4.7,8.96,38.73,1559264161
336,Shihezi,CN,72.44,25,91,5.84,44.3,86.03,1559264161
337,Urucara,BR,75.32,95,100,0.58,-2.54,-57.76,1559264162
338,Victoria Point,AU,64.0,19,0,11.41,-27.58,153.3,1559264162
339,Milazzo,IT,61.0,87,20,4.7,38.22,15.24,1559264162
340,Maumere,ID,80.54,73,75,9.55,-8.63,122.22,1559264163
341,Chokurdakh,RU,38.06,77,100,14.58,70.62,147.9,1559264163
342,Skelleftea,SE,44.01,100,100,11.41,64.75,20.95,1559264163
343,Labuhan,ID,79.64,79,97,0.51,-2.54,115.51,1559264163
344,Saint-Pierre,FR,53.6,93,20,4.7,48.95,4.24,1559264164
345,Dinguiraye,GN,82.88,58,38,10.92,11.29,-10.71,1559264164
346,Jeremie,HT,80.9,68,7,2.33,18.65,-74.12,1559264165
347,Mastic Beach,US,61.0,93,90,6.93,40.77,-72.85,1559264165
348,Muroto,JP,71.6,68,75,3.36,33.37,134.14,1559264165
349,Tabuk,PH,72.8,85,98,0.63,17.41,121.44,1559264166
350,Fairbanks,US,75.0,30,40,6.93,64.84,-147.72,1559263987
351,Sitka,US,75.99,42,0,7.67,37.17,-99.65,1559264166
352,Marquette,US,52.0,27,5,11.41,46.54,-87.4,1559263958
353,Half Moon Bay,US,66.99,93,90,6.93,37.46,-122.43,1559263963
354,Teixoso,PT,61.64,42,0,6.69,40.31,-7.46,1559264167
355,Lazaro Cardenas,MX,91.4,6,5,6.93,28.39,-105.62,1559264167
356,Mutare,MZ,48.86,91,0,1.54,-18.97,32.67,1559264168
357,Zhezkazgan,KZ,66.32,39,9,12.48,47.8,67.71,1559264168
358,Novo Aripuana,BR,76.94,82,73,1.12,-5.12,-60.38,1559264169
359,New Milford,US,64.4,93,90,4.7,40.94,-74.02,1559264042
360,Constantine,DZ,46.4,81,0,1.05,36.36,6.61,1559264169
361,Cayenne,GF,77.0,94,96,2.24,4.94,-52.33,1559264169
362,Ayolas,PY,64.34,97,81,2.48,-27.39,-56.84,1559264170
363,Shelburne,CA,68.0,64,1,6.93,44.08,-80.2,1559264170
364,Soderhamn,SE,41.0,86,63,3.0,61.3,17.06,1559264171
365,Cockburn Town,TC,80.9,79,0,15.82,21.46,-71.14,1559263881
366,Augusto Correa,BR,74.6,98,100,2.26,-1.02,-46.63,1559263873
367,Sao Felix do Xingu,BR,74.06,84,42,3.51,-6.64,-51.99,1559264172
368,Quesnel,CA,82.4,21,1,2.24,52.98,-122.49,1559264173
369,Manacor,ES,63.0,82,0,2.24,39.57,3.21,1559264063
370,Tahe,CN,55.88,46,18,11.14,52.34,124.71,1559264173
371,Kapuskasing,CA,46.4,45,75,8.05,49.42,-82.43,1559263902
372,Inuvik,CA,53.6,37,20,5.82,68.36,-133.71,1559264173
373,Jalalpur Pirwala,PK,97.46,8,0,6.58,29.5,71.22,1559264174
374,Baruun-Urt,MN,56.78,32,34,14.34,46.68,113.28,1559263863
375,Aitape,PG,85.58,66,57,5.79,-3.15,142.36,1559264174
376,Road Town,VG,82.4,78,75,8.05,18.42,-64.62,1559264175
377,Nizwa,OM,83.24,23,1,1.41,22.93,57.53,1559263854
378,Lakes Entrance,AU,59.0,75,99,3.0,-37.88,147.99,1559264175
379,Manggar,ID,78.56,86,100,4.81,-2.88,108.27,1559264175
380,Mogapinyana,BW,54.62,69,0,2.64,-22.37,27.59,1559264176
381,Sol-Iletsk,RU,61.82,83,0,1.05,51.16,55.0,1559264176
382,Taft,PH,82.52,78,80,3.71,11.9,125.42,1559264176
383,Anzio,IT,59.0,93,20,2.24,41.45,12.63,1559264177
384,Tarbes,FR,61.0,93,0,3.36,43.23,0.08,1559264041
385,Lahaina,US,91.4,48,40,11.41,20.87,-156.68,1559263889
386,Ballina,IE,57.0,95,100,7.0,54.11,-9.15,1559264177
387,Kisangani,CD,71.54,98,100,2.1,0.52,25.21,1559264178
388,Bilma,NE,86.84,42,61,11.68,18.69,12.92,1559264178
389,Caxito,BR,69.56,84,51,4.83,-22.65,-42.51,1559264178
390,Oksfjord,NO,44.6,75,75,18.34,70.24,22.35,1559264179
391,Tanout,NE,87.92,45,98,9.48,14.97,8.88,1559264179
392,Bougouni,ML,86.66,62,75,14.34,11.42,-7.49,1559264179
393,Jackville,CI,78.8,94,40,4.7,5.21,-4.42,1559264179
394,Khangarh,PK,87.8,40,0,6.93,29.91,71.16,1559264180
395,Port Hardy,CA,66.2,52,20,13.87,50.7,-127.42,1559264180
396,Lanzhou,CN,59.0,42,0,4.47,36.06,103.82,1559264180
397,Bongor,TD,90.26,47,96,8.48,10.28,15.37,1559264181
398,Inhambane,MZ,61.28,97,0,6.29,-23.87,35.38,1559264181
399,Inongo,CD,72.44,94,99,3.8,-1.93,18.29,1559264181
400,Bang Saphan,TH,78.8,94,20,2.24,11.21,99.51,1559264181
401,Kanchanaburi,TH,80.72,75,100,2.95,14.03,99.53,1559264182
402,Santa Maria,BR,59.0,100,90,11.41,-29.69,-53.81,1559263847
403,Frutal,BR,73.34,67,0,2.55,-20.02,-48.93,1559264182
404,Abu Zabad,SD,94.04,30,99,8.72,12.35,29.25,1559264182
405,Novellara,IT,60.01,82,40,2.24,44.84,10.73,1559264183
406,Acari,BR,76.58,79,48,14.88,-6.44,-36.64,1559264183
407,Champerico,MX,77.0,83,90,4.7,16.38,-93.6,1559264184
408,Kibaya,RW,64.4,88,40,6.93,-2.2,30.56,1559264184
409,Liaocheng,CN,77.48,22,1,11.3,36.44,115.96,1559264184
410,Gravdal,NO,46.4,70,33,12.75,59.79,5.78,1559264185
411,Paralimni,GR,69.01,60,0,1.01,40.99,23.67,1559264185
412,Lubao,PH,91.0,70,75,2.24,14.94,120.6,1559264185
413,Dingle,PH,86.48,64,40,8.08,11.0,122.67,1559264185
414,Valandovo,MK,69.01,77,19,6.38,41.32,22.56,1559264186
415,Kutum,SD,81.26,42,91,7.38,14.2,24.66,1559264186
416,Viedma,AR,48.68,70,100,8.7,-40.81,-62.99,1559264186
417,Deputatskiy,RU,40.58,83,90,6.24,69.3,139.9,1559264186
418,San Pedro,AR,52.0,79,100,1.99,-33.68,-59.66,1559264188
419,Lamu,ID,81.08,73,100,5.59,0.57,122.3,1559264188
420,Chara,GR,64.4,59,40,4.94,39.42,22.43,1559264188
421,Amuntai,ID,77.12,92,100,0.36,-2.42,115.25,1559264189
422,Ust-Ilimsk,RU,64.7,51,72,6.93,57.96,102.73,1559264189
423,Mayumba,GA,77.12,84,7,10.33,-3.44,10.65,1559264189
424,Avera,US,91.4,42,1,4.7,33.19,-82.53,1559264189
425,Kattivakkam,IN,87.8,74,20,6.93,13.22,80.32,1559264190
426,Noyabrsk,RU,35.18,84,94,16.13,63.2,75.45,1559264190
427,Palana,RU,49.76,71,100,5.39,59.08,159.95,1559264190
428,Mokhsogollokh,RU,59.12,46,100,8.84,61.4,128.95,1559264191
429,Saint Anthony,US,73.4,34,1,5.12,43.97,-111.68,1559264191
430,Saint-Felicien,CA,51.01,87,75,8.05,48.65,-72.45,1559264191
431,Henties Bay,NA,57.99,93,9,3.0,-22.12,14.28,1559264192
432,Udachnyy,RU,53.6,37,0,8.95,66.42,112.4,1559264192
433,Qandala,SO,86.66,54,100,6.11,11.47,49.87,1559264192
434,Oranjemund,ZA,56.24,91,0,11.12,-28.55,16.43,1559264193
435,Alice Springs,AU,50.0,46,0,18.34,-23.7,133.88,1559264193
436,Charagua,BO,68.12,88,1,4.88,-19.79,-63.2,1559264193
437,Gemunden,DE,59.0,83,72,2.51,50.05,9.7,1559264193
438,Asimion,GR,70.0,68,0,6.93,35.05,25.1,1559264194
439,Nadadores,MX,81.98,59,26,9.93,27.03,-101.59,1559264194
440,Newport,GB,61.0,82,90,6.93,51.59,-3.0,1559264194
441,Severodvinsk,RU,42.8,70,0,4.47,64.56,39.82,1559264195
442,Sundsvall,SE,41.0,80,59,3.36,62.39,17.31,1559264195
443,Gusau,NG,83.6,59,100,10.85,12.17,6.66,1559264195
444,Mazyr,BY,54.26,96,67,4.36,52.05,29.27,1559264196
445,Carbonia,IT,61.0,87,0,5.82,39.17,8.53,1559264196
446,Lethem,GY,82.52,68,90,10.4,3.38,-59.8,1559264196
447,Teya,MX,91.4,52,40,20.8,21.05,-89.07,1559264196
448,Touros,BR,77.0,94,75,6.93,-5.2,-35.46,1559264196
449,Shache,CN,71.01,91,90,4.34,38.42,77.24,1559264197
450,Colomi,BO,64.4,62,4,3.36,-17.34,-65.87,1559264197
451,Alekseyevsk,RU,50.3,73,100,5.77,57.84,108.35,1559264198
452,Murray Bridge,AU,60.01,95,73,3.0,-35.12,139.28,1559263930
453,Mahon,IE,57.99,100,75,12.75,51.89,-8.4,1559264198
454,Rajnagar,BD,77.66,93,2,6.38,24.52,91.87,1559264198
455,Brigantine,US,72.0,100,1,9.17,39.41,-74.36,1559264199
456,Cabadiangan,PH,87.8,62,20,6.93,10.45,123.98,1559264199
457,Adrar,DZ,89.6,19,40,10.29,27.87,-0.29,1559264199
458,Ketchikan,US,71.6,35,1,14.99,55.34,-131.65,1559264107
459,Nelson Bay,AU,57.99,54,0,20.8,-32.72,152.14,1559264200
460,Farafangana,MG,63.62,90,1,3.69,-22.82,47.83,1559264200
461,Chapais,CA,39.2,70,40,10.29,49.78,-74.86,1559263859
462,Paamiut,GL,37.16,84,66,8.61,61.99,-49.67,1559264200
463,Rio Grande,BR,56.24,95,100,4.76,-32.03,-52.1,1559264157
464,Victor Harbor,AU,60.01,82,75,11.41,-35.55,138.62,1559264201
465,Jablah,SY,71.6,49,0,5.82,35.36,35.93,1559264201
466,Humaita,AR,57.2,82,75,4.27,-24.93,-65.37,1559264202
467,Ballitoville,ZA,57.0,93,0,1.12,-29.54,31.21,1559264202
468,Te Anau,NZ,39.5,79,95,2.42,-45.41,167.72,1559264202
469,Provideniya,RU,41.0,52,90,4.47,64.42,-173.23,1559264203
470,Raudeberg,NO,44.6,81,92,12.75,61.99,5.14,1559264203
471,Awbari,LY,88.46,25,9,21.0,26.59,12.77,1559264203
472,Verkhnyaya Inta,RU,31.94,76,61,10.09,65.99,60.32,1559264204
473,Saurimo,AO,66.68,54,12,4.21,-9.66,20.4,1559264204
474,Katsuura,JP,75.0,64,75,4.7,33.93,134.5,1559263877
475,Biak,ID,67.94,96,92,4.21,-0.91,122.88,1559264205
476,Mana,RS,55.4,87,75,3.36,43.52,20.24,1559264205
477,Westport,IE,57.0,93,100,17.09,53.8,-9.52,1559264205
478,Swan Hill,AU,56.06,80,98,11.27,-35.34,143.56,1559264206
479,Pecos,US,77.0,60,75,9.17,31.42,-103.49,1559264206
480,Mackay,CA,66.2,45,90,6.93,53.65,-115.58,1559264206
481,Saint-Felix-de-Valois,CA,68.0,93,90,2.24,46.17,-73.43,1559264207
482,Abramovka,RU,64.16,69,0,4.81,51.19,41.01,1559264207
483,Pita,GN,70.1,80,23,6.49,11.06,-12.4,1559264207
484,Kenai,US,55.0,66,90,13.87,60.55,-151.26,1559264207
485,Tiarei,PF,84.2,70,75,11.41,-17.53,-149.33,1559264208
486,Camacha,PT,71.01,93,40,13.87,33.08,-16.33,1559263877
487,Jiaocheng,CN,74.6,90,59,1.9,24.68,116.14,1559264208
488,Bowen,AU,68.0,72,90,17.22,-20.01,148.25,1559264208
489,Geilo,NO,33.01,72,7,8.01,60.53,8.21,1559264209
490,Horni Benesov,CZ,53.01,100,20,2.24,49.97,17.6,1559264209
491,Sharjah,AE,86.0,40,0,4.7,25.36,55.39,1559264210
492,Camalu,MX,59.66,89,16,13.42,30.85,-116.07,1559264210
493,Bosaso,SO,87.74,58,100,12.17,11.28,49.18,1559264210
494,Butea,RO,63.0,88,75,5.82,47.07,26.94,1559264211
495,Eldorado,MX,86.0,58,20,13.87,24.32,-107.36,1559264211
496,Caldwell,US,73.99,64,75,5.82,43.67,-116.69,1559263918
497,Pingdingshan,CN,76.4,44,8,3.96,33.74,113.3,1559264212
498,Dubbo,AU,50.0,71,90,12.75,-32.25,148.6,1559264215
499,Mitu,IR,53.9,43,0,4.36,36.2,46.09,1559264216
500,Boddam,GB,46.4,87,90,4.7,57.47,-1.78,1559264216
501,At-Bashi,KG,48.32,55,87,2.28,41.17,75.81,1559263854
502,Banyumas,ID,75.32,85,85,6.02,-7.52,109.29,1559264217
503,Beyneu,KZ,76.04,34,0,8.66,45.32,55.19,1559264217
504,Sibolga,ID,83.24,75,98,6.89,1.74,98.78,1559263851
505,San Borja,BO,75.14,89,44,3.4,-14.86,-66.75,1559264217
506,Harper,US,79.0,78,90,10.29,30.3,-99.24,1559264218
507,Grand Gaube,MU,66.99,88,40,9.17,-20.01,57.66,1559264103
508,Bilibino,RU,42.92,83,1,2.68,68.06,166.44,1559264218
509,Nanakuli,US,87.8,51,75,17.22,21.39,-158.15,1559264219
510,Santa Rosa,AR,45.8,92,95,7.78,-36.62,-64.29,1559264086
511,Yar-Sale,RU,33.38,95,98,13.87,66.83,70.83,1559264221
512,Olinda,EC,79.0,83,75,5.82,-2.03,-79.75,1559264221
513,Port Blair,IN,85.4,71,100,10.76,11.67,92.75,1559264222
514,Tezu,IN,74.24,47,23,3.29,27.93,96.16,1559264223
515,Pembroke,CA,64.4,48,75,11.41,45.82,-77.11,1559264224
516,Namie,JP,73.0,68,75,11.41,37.52,140.86,1559264224
517,Oga,NG,72.98,91,100,7.72,8.18,5.65,1559264224
518,Vagay,RU,54.8,85,97,2.68,57.94,69.02,1559264224
519,Praia,BR,68.0,72,0,3.36,-20.25,-43.81,1559264225
520,Tynda,RU,54.44,43,75,13.73,55.15,124.74,1559264225
521,Reidsville,US,87.8,65,40,3.58,36.35,-79.66,1559264014
522,Sunland Park,US,87.01,25,20,8.05,31.8,-106.58,1559264226
523,Conchal,BR,72.0,93,0,1.12,-22.34,-47.17,1559264226
524,Gaogou,CN,70.1,79,46,4.92,31.12,117.94,1559264226
525,Bubaque,GW,78.74,79,0,15.05,11.28,-15.83,1559264227
526,Sambava,MG,65.6,93,33,2.64,-14.27,50.17,1559264049
527,Lagunillas,VE,69.2,83,100,2.98,8.5,-71.39,1559264227
528,Minot,US,84.2,23,1,16.11,48.23,-101.3,1559264133
529,Bataipora,BR,73.7,79,14,3.29,-22.3,-53.27,1559264228
530,Nanyang,CN,71.54,58,36,3.94,33.0,112.53,1559264228
531,Porto Belo,BR,70.0,94,75,3.36,-27.15,-48.54,1559264229
532,Sura,IN,87.02,15,0,7.07,30.03,77.1,1559264229
533,Walvis Bay,NA,57.99,93,22,4.7,-22.95,14.51,1559264230
534,Vila Velha,BR,81.0,78,20,6.93,-3.71,-38.6,1559264230
535,Aswan,EG,93.2,13,0,5.82,24.09,32.9,1559264230
536,Whitehorse,CA,71.6,33,75,6.93,60.72,-135.06,1559264231
